{"type":"FeatureCollection","features":[{"properties":{"IP-Partner":null,"Affiliation":null,"Type":"BOYS","Positive":67,"Tech":null,"Stream":"IB","Affiliated":null,"Area":"NOVENA","Express":253.0,"Acad":null,"Negative":33,"School":"ST. JOSEPH'S INSTITUTION "},"type":"Feature","geometry":{"type":"Point","coordinates":[103.828591,1.322914]}},{"properties":{"IP-Partner":"EUNOIA JC","Affiliation":null,"Type":"BOYS","Positive":83,"Tech":null,"Stream":"IP","Affiliated":null,"Area":"BISHAN","Express":252.0,"Acad":null,"Negative":17,"School":"CATHOLIC HIGH SCHOOL "},"type":"Feature","geometry":{"type":"Point","coordinates":[103.8451234,1.3546049]}},{"properties":{"IP-Partner":null,"Affiliation":235.0,"Type":"BOYS","Positive":86,"Tech":null,"Stream":"O-levels","Affiliated":"ANGLO-CHINESE JC","Area":"QUEENSTOWN","Express":250.0,"Acad":null,"Negative":14,"School":"ANGLO-CHINESE SCHOOL (INDEPENDENT) "},"type":"Feature","geometry":{"type":"Point","coordinates":[103.7805524,1.3027021]}},{"properties":{"IP-Partner":null,"Affiliation":null,"Type":"GIRLS","Positive":63,"Tech":null,"Stream":"O-levels","Affiliated":null,"Area":"TOA PAYOH","Express":250.0,"Acad":null,"Negative":37,"School":"CEDAR GIRLS' SECONDARY SCHOOL "},"type":"Feature","geometry":{"type":"Point","coordinates":[103.8741655,1.3342746]}},{"properties":{"IP-Partner":null,"Affiliation":206.0,"Type":"GIRLS","Positive":94,"Tech":102.0,"Stream":"O-levels","Affiliated":"ANGLO-CHINESE JC","Area":"HOUGANG","Express":250.0,"Acad":184.0,"Negative":6,"School":"PAYA LEBAR METHODIST GIRLS' SCHOOL (SECONDARY) "},"type":"Feature","geometry":{"type":"Point","coordinates":[103.885541,1.350806]}},{"properties":{"IP-Partner":null,"Affiliation":null,"Type":"CO-ED","Positive":69,"Tech":null,"Stream":"IP","Affiliated":null,"Area":"BEDOK","Express":250.0,"Acad":null,"Negative":31,"School":"TEMASEK JUNIOR COLLEGE "},"type":"Feature","geometry":{"type":"Point","coordinates":[103.9355401,1.3185603]}},{"properties":{"IP-Partner":null,"Affiliation":240.0,"Type":"BOYS","Positive":88,"Tech":null,"Stream":"O-levels","Affiliated":"CATHOLIC JC","Area":"BISHAN","Express":248.0,"Acad":null,"Negative":12,"School":"CATHOLIC HIGH SCHOOL "},"type":"Feature","geometry":{"type":"Point","coordinates":[103.8451234,1.3546049]}},{"properties":{"IP-Partner":null,"Affiliation":188.0,"Type":"BOYS","Positive":89,"Tech":141.0,"Stream":"O-levels","Affiliated":"ST. ANDREW'S JC","Area":"TOA PAYOH","Express":246.0,"Acad":177.0,"Negative":11,"School":"ST. ANDREW'S SECONDARY SCHOOL "},"type":"Feature","geometry":{"type":"Point","coordinates":[103.8661898,1.3312299]}},{"properties":{"IP-Partner":null,"Affiliation":null,"Type":"CO-ED","Positive":66,"Tech":141.0,"Stream":"O-levels","Affiliated":null,"Area":"ANG MO KIO","Express":245.0,"Acad":186.0,"Negative":34,"School":"ANDERSON SECONDARY SCHOOL"},"type":"Feature","geometry":{"type":"Point","coordinates":[103.8510309,1.374639]}},{"properties":{"IP-Partner":null,"Affiliation":null,"Type":"CO-ED","Positive":69,"Tech":146.0,"Stream":"O-levels","Affiliated":null,"Area":"CHOA CHU KANG","Express":245.0,"Acad":191.0,"Negative":31,"School":"BUKIT PANJANG GOVT. HIGH SCHOOL"},"type":"Feature","geometry":{"type":"Point","coordinates":[103.7385804,1.3818716]}},{"properties":{"IP-Partner":null,"Affiliation":238.0,"Type":"BOYS","Positive":60,"Tech":null,"Stream":"O-levels","Affiliated":"CATHOLIC JC","Area":"NOVENA","Express":245.0,"Acad":null,"Negative":40,"School":"ST. JOSEPH'S INSTITUTION "},"type":"Feature","geometry":{"type":"Point","coordinates":[103.828591,1.322914]}},{"properties":{"IP-Partner":null,"Affiliation":null,"Type":"BOYS","Positive":78,"Tech":null,"Stream":"O-levels","Affiliated":"VICTORIA JC","Area":"BEDOK","Express":245.0,"Acad":null,"Negative":22,"School":"VICTORIA SCHOOL - O-levels"},"type":"Feature","geometry":{"type":"Point","coordinates":[103.927638,1.308378]}},{"properties":{"IP-Partner":null,"Affiliation":200.0,"Type":"GIRLS","Positive":73,"Tech":103.0,"Stream":"O-levels","Affiliated":"CATHOLIC JC","Area":"TOA PAYOH","Express":243.0,"Acad":184.0,"Negative":27,"School":"CHIJ SECONDARY (TOA PAYOH) "},"type":"Feature","geometry":{"type":"Point","coordinates":[103.8428056,1.3323048]}},{"properties":{"IP-Partner":null,"Affiliation":null,"Type":"CO-ED","Positive":73,"Tech":null,"Stream":"O-levels","Affiliated":null,"Area":"CLEMENTI","Express":243.0,"Acad":null,"Negative":27,"School":"NAN HUA HIGH SCHOOL"},"type":"Feature","geometry":{"type":"Point","coordinates":[103.7689246,1.3083739]}},{"properties":{"IP-Partner":null,"Affiliation":188.0,"Type":"BOYS","Positive":73,"Tech":137.0,"Stream":"O-levels","Affiliated":"ANGLO-CHINESE JC","Area":"NOVENA","Express":241.0,"Acad":187.0,"Negative":27,"School":"ANGLO-CHINESE SCHOOL (BARKER ROAD) "},"type":"Feature","geometry":{"type":"Point","coordinates":[103.835852,1.3197406]}},{"properties":{"IP-Partner":null,"Affiliation":null,"Type":"GIRLS","Positive":79,"Tech":null,"Stream":"O-levels","Affiliated":null,"Area":"BUKIT MERAH","Express":241.0,"Acad":null,"Negative":21,"School":"CRESCENT GIRLS' SCHOOL"},"type":"Feature","geometry":{"type":"Point","coordinates":[103.8166752,1.2940179]}},{"properties":{"IP-Partner":null,"Affiliation":200.0,"Type":"CO-ED","Positive":78,"Tech":113.0,"Stream":"O-levels","Affiliated":"ANGLO-CHINESE JC","Area":"QUEENSTOWN","Express":241.0,"Acad":null,"Negative":22,"School":"FAIRFIELD METHODIST SCHOOL (SECONDARY) "},"type":"Feature","geometry":{"type":"Point","coordinates":[103.7844805,1.3017827]}},{"properties":{"IP-Partner":null,"Affiliation":null,"Type":"CO-ED","Positive":90,"Tech":null,"Stream":"O-levels","Affiliated":null,"Area":"SENG KANG","Express":241.0,"Acad":null,"Negative":10,"School":"NAN CHIAU HIGH SCHOOL"},"type":"Feature","geometry":{"type":"Point","coordinates":[103.88913,1.389345]}},{"properties":{"IP-Partner":null,"Affiliation":null,"Type":"CO-ED","Positive":84,"Tech":null,"Stream":"O-levels","Affiliated":"NANYANG JC","Area":"MARINE PARADE","Express":240.0,"Acad":null,"Negative":16,"School":"CHUNG CHENG HIGH SCHOOL (MAIN)"},"type":"Feature","geometry":{"type":"Point","coordinates":[103.8915495,1.3054121]}},{"properties":{"IP-Partner":null,"Affiliation":200.0,"Type":"GIRLS","Positive":66,"Tech":130.0,"Stream":"O-levels","Affiliated":"ST. ANDREW'S JC","Area":"BUKIT TIMAH","Express":240.0,"Acad":189.0,"Negative":34,"School":"ST. MARGARET'S SECONDARY SCHOOL "},"type":"Feature","geometry":{"type":"Point","coordinates":[103.809466,1.320091]}},{"properties":{"IP-Partner":null,"Affiliation":null,"Type":"CO-ED","Positive":78,"Tech":143.0,"Stream":"O-levels","Affiliated":null,"Area":"BUKIT BATOK","Express":240.0,"Acad":185.0,"Negative":22,"School":"SWISS COTTAGE SECONDARY SCHOOL"},"type":"Feature","geometry":{"type":"Point","coordinates":[103.75064,1.36469]}},{"properties":{"IP-Partner":null,"Affiliation":null,"Type":"CO-ED","Positive":82,"Tech":null,"Stream":"O-levels","Affiliated":"ST. ANDREW'S JC","Area":"BEDOK","Express":238.0,"Acad":null,"Negative":18,"School":"ANGLICAN HIGH SCHOOL"},"type":"Feature","geometry":{"type":"Point","coordinates":[103.9416359,1.3307761]}},{"properties":{"IP-Partner":null,"Affiliation":null,"Type":"CO-ED","Positive":88,"Tech":139.0,"Stream":"O-levels","Affiliated":"NANYANG JC","Area":"YISHUN","Express":237.0,"Acad":182.0,"Negative":12,"School":"CHUNG CHENG HIGH SCHOOL (YISHUN)"},"type":"Feature","geometry":{"type":"Point","coordinates":[103.837311,1.418737]}},{"properties":{"IP-Partner":null,"Affiliation":null,"Type":"CO-ED","Positive":77,"Tech":134.0,"Stream":"O-levels","Affiliated":null,"Area":"JURONG EAST","Express":237.0,"Acad":181.0,"Negative":23,"School":"COMMONWEALTH SECONDARY SCHOOL"},"type":"Feature","geometry":{"type":"Point","coordinates":[103.7455916,1.3189295]}},{"properties":{"IP-Partner":null,"Affiliation":225.0,"Type":"CO-ED","Positive":73,"Tech":143.0,"Stream":"O-levels","Affiliated":null,"Area":"TAMPINES","Express":237.0,"Acad":191.0,"Negative":27,"School":"NGEE ANN SECONDARY SCHOOL "},"type":"Feature","geometry":{"type":"Point","coordinates":[103.9568201,1.3542893]}},{"properties":{"IP-Partner":null,"Affiliation":226.0,"Type":"BOYS","Positive":69,"Tech":null,"Stream":"O-levels","Affiliated":"CATHOLIC JC","Area":"TOA PAYOH","Express":236.0,"Acad":null,"Negative":31,"School":"MARIS STELLA HIGH SCHOOL "},"type":"Feature","geometry":{"type":"Point","coordinates":[103.878278,1.34224]}},{"properties":{"IP-Partner":null,"Affiliation":null,"Type":"CO-ED","Positive":78,"Tech":141.0,"Stream":"O-levels","Affiliated":null,"Area":"YISHUN","Express":235.0,"Acad":183.0,"Negative":22,"School":"YISHUN TOWN SECONDARY SCHOOL"},"type":"Feature","geometry":{"type":"Point","coordinates":[103.8381008,1.4327369]}},{"properties":{"IP-Partner":null,"Affiliation":200.0,"Type":"GIRLS","Positive":92,"Tech":104.0,"Stream":"O-levels","Affiliated":"CATHOLIC JC","Area":"BUKIT MERAH","Express":234.0,"Acad":178.0,"Negative":8,"School":"CHIJ ST. THERESA'S CONVENT "},"type":"Feature","geometry":{"type":"Point","coordinates":[103.8221205,1.2752529]}},{"properties":{"IP-Partner":null,"Affiliation":null,"Type":"CO-ED","Positive":84,"Tech":130.0,"Stream":"O-levels","Affiliated":null,"Area":"HOUGANG","Express":233.0,"Acad":179.0,"Negative":16,"School":"XINMIN SECONDARY SCHOOL"},"type":"Feature","geometry":{"type":"Point","coordinates":[103.8828692,1.3720807]}},{"properties":{"IP-Partner":null,"Affiliation":null,"Type":"CO-ED","Positive":69,"Tech":131.0,"Stream":"O-levels","Affiliated":null,"Area":"JURONG WEST","Express":232.0,"Acad":178.0,"Negative":31,"School":"FUHUA SECONDARY SCHOOL"},"type":"Feature","geometry":{"type":"Point","coordinates":[103.7265636,1.347278]}},{"properties":{"IP-Partner":null,"Affiliation":null,"Type":"CO-ED","Positive":79,"Tech":null,"Stream":"O-levels","Affiliated":null,"Area":"MARINE PARADE","Express":232.0,"Acad":null,"Negative":21,"School":"TANJONG KATONG SECONDARY SCHOOL"},"type":"Feature","geometry":{"type":"Point","coordinates":[103.897576,1.3083201]}},{"properties":{"IP-Partner":null,"Affiliation":null,"Type":"CO-ED","Positive":69,"Tech":133.0,"Stream":"O-levels","Affiliated":null,"Area":"SERANGOON","Express":232.0,"Acad":183.0,"Negative":31,"School":"ZHONGHUA SECONDARY SCHOOL"},"type":"Feature","geometry":{"type":"Point","coordinates":[103.8692504,1.3494016]}},{"properties":{"IP-Partner":null,"Affiliation":200.0,"Type":"GIRLS","Positive":68,"Tech":109.0,"Stream":"O-levels","Affiliated":"CATHOLIC JC","Area":"SENG KANG","Express":231.0,"Acad":186.0,"Negative":32,"School":"CHIJ ST. JOSEPH'S CONVENT "},"type":"Feature","geometry":{"type":"Point","coordinates":[103.902461,1.391747]}},{"properties":{"IP-Partner":null,"Affiliation":200.0,"Type":"CO-ED","Positive":78,"Tech":117.0,"Stream":"O-levels","Affiliated":"ST. ANDREW'S JC","Area":"BISHAN","Express":231.0,"Acad":179.0,"Negative":22,"School":"KUO CHUAN PRESBYTERIAN SECONDARY SCHOOL "},"type":"Feature","geometry":{"type":"Point","coordinates":[103.854907,1.350135]}},{"properties":{"IP-Partner":null,"Affiliation":null,"Type":"CO-ED","Positive":75,"Tech":137.0,"Stream":"O-levels","Affiliated":null,"Area":"ANG MO KIO","Express":231.0,"Acad":176.0,"Negative":25,"School":"PRESBYTERIAN HIGH SCHOOL"},"type":"Feature","geometry":{"type":"Point","coordinates":[103.8431,1.382254]}},{"properties":{"IP-Partner":null,"Affiliation":null,"Type":"CO-ED","Positive":54,"Tech":141.0,"Stream":"O-levels","Affiliated":null,"Area":"WOODLANDS","Express":231.0,"Acad":175.0,"Negative":46,"School":"RIVERSIDE SECONDARY SCHOOL"},"type":"Feature","geometry":{"type":"Point","coordinates":[103.788591,1.4404834]}},{"properties":{"IP-Partner":null,"Affiliation":null,"Type":"CO-ED","Positive":75,"Tech":144.0,"Stream":"O-levels","Affiliated":null,"Area":"BEDOK","Express":231.0,"Acad":186.0,"Negative":25,"School":"TEMASEK SECONDARY SCHOOL"},"type":"Feature","geometry":{"type":"Point","coordinates":[103.9470222,1.3162068]}},{"properties":{"IP-Partner":null,"Affiliation":null,"Type":"CO-ED","Positive":53,"Tech":131.0,"Stream":"O-levels","Affiliated":null,"Area":"CLEMENTI","Express":230.0,"Acad":176.0,"Negative":47,"School":"CLEMENTI TOWN SECONDARY SCHOOL"},"type":"Feature","geometry":{"type":"Point","coordinates":[103.7622758,1.3154881]}},{"properties":{"IP-Partner":null,"Affiliation":null,"Type":"CO-ED","Positive":61,"Tech":132.0,"Stream":"O-levels","Affiliated":null,"Area":"TAMPINES","Express":229.0,"Acad":184.0,"Negative":39,"School":"DUNMAN SECONDARY SCHOOL"},"type":"Feature","geometry":{"type":"Point","coordinates":[103.9559258,1.3610555]}},{"properties":{"IP-Partner":null,"Affiliation":188.0,"Type":"CO-ED","Positive":48,"Tech":135.0,"Stream":"O-levels","Affiliated":"CATHOLIC JC","Area":"HOUGANG","Express":229.0,"Acad":175.0,"Negative":52,"School":"HOLY INNOCENTS' HIGH SCHOOL "},"type":"Feature","geometry":{"type":"Point","coordinates":[103.896016,1.3711481]}},{"properties":{"IP-Partner":null,"Affiliation":null,"Type":"GIRLS","Positive":64,"Tech":null,"Stream":"O-levels","Affiliated":null,"Area":"MARINE PARADE","Express":229.0,"Acad":null,"Negative":36,"School":"TANJONG KATONG GIRLS' SCHOOL"},"type":"Feature","geometry":{"type":"Point","coordinates":[103.9267853,1.3223317]}},{"properties":{"IP-Partner":null,"Affiliation":null,"Type":"CO-ED","Positive":67,"Tech":117.0,"Stream":"O-levels","Affiliated":null,"Area":"CHOA CHU KANG","Express":228.0,"Acad":171.0,"Negative":33,"School":"KRANJI SECONDARY SCHOOL"},"type":"Feature","geometry":{"type":"Point","coordinates":[103.756524,1.381679]}},{"properties":{"IP-Partner":null,"Affiliation":188.0,"Type":"CO-ED","Positive":74,"Tech":107.0,"Stream":"O-levels","Affiliated":"ST. ANDREW'S JC","Area":"TAMPINES","Express":228.0,"Acad":183.0,"Negative":26,"School":"ST. HILDA'S SECONDARY SCHOOL "},"type":"Feature","geometry":{"type":"Point","coordinates":[103.936745,1.3503799]}},{"properties":{"IP-Partner":null,"Affiliation":null,"Type":"CO-ED","Positive":61,"Tech":118.0,"Stream":"O-levels","Affiliated":null,"Area":"ANG MO KIO","Express":226.0,"Acad":175.0,"Negative":39,"School":"ANG MO KIO SECONDARY SCHOOL"},"type":"Feature","geometry":{"type":"Point","coordinates":[103.8426,1.367353]}},{"properties":{"IP-Partner":null,"Affiliation":null,"Type":"CO-ED","Positive":46,"Tech":142.0,"Stream":"O-levels","Affiliated":null,"Area":"HOUGANG","Express":226.0,"Acad":180.0,"Negative":54,"School":"BOWEN SECONDARY SCHOOL"},"type":"Feature","geometry":{"type":"Point","coordinates":[103.877974,1.371165]}},{"properties":{"IP-Partner":null,"Affiliation":null,"Type":"CO-ED","Positive":56,"Tech":139.0,"Stream":"O-levels","Affiliated":null,"Area":"WOODLANDS","Express":225.0,"Acad":172.0,"Negative":44,"School":"EVERGREEN SECONDARY SCHOOL"},"type":"Feature","geometry":{"type":"Point","coordinates":[103.7936114,1.4415383]}},{"properties":{"IP-Partner":null,"Affiliation":200.0,"Type":"GIRLS","Positive":77,"Tech":119.0,"Stream":"O-levels","Affiliated":"CATHOLIC JC","Area":"MARINE PARADE","Express":224.0,"Acad":177.0,"Negative":23,"School":"CHIJ KATONG CONVENT "},"type":"Feature","geometry":{"type":"Point","coordinates":[103.9166868,1.3063984]}},{"properties":{"IP-Partner":null,"Affiliation":null,"Type":"CO-ED","Positive":71,"Tech":141.0,"Stream":"O-levels","Affiliated":null,"Area":"PUNGGOL","Express":224.0,"Acad":184.0,"Negative":29,"School":"EDGEFIELD SECONDARY SCHOOL"},"type":"Feature","geometry":{"type":"Point","coordinates":[103.902302,1.4002145]}},{"properties":{"IP-Partner":null,"Affiliation":null,"Type":"CO-ED","Positive":51,"Tech":138.0,"Stream":"O-levels","Affiliated":null,"Area":"BUKIT MERAH","Express":224.0,"Acad":176.0,"Negative":49,"School":"GAN ENG SENG SCHOOL"},"type":"Feature","geometry":{"type":"Point","coordinates":[103.8237419,1.2894529]}},{"properties":{"IP-Partner":null,"Affiliation":195.0,"Type":"CO-ED","Positive":76,"Tech":128.0,"Stream":"O-levels","Affiliated":"ANGLO-CHINESE JC","Area":"GEYLANG","Express":224.0,"Acad":182.0,"Negative":24,"School":"GEYLANG METHODIST SCHOOL (SECONDARY) "},"type":"Feature","geometry":{"type":"Point","coordinates":[103.8826824,1.3176883]}},{"properties":{"IP-Partner":null,"Affiliation":188.0,"Type":"BOYS","Positive":48,"Tech":120.0,"Stream":"O-levels","Affiliated":"CATHOLIC JC","Area":"SERANGOON","Express":224.0,"Acad":160.0,"Negative":52,"School":"ST. GABRIEL'S SECONDARY SCHOOL "},"type":"Feature","geometry":{"type":"Point","coordinates":[103.8757594,1.3467554]}},{"properties":{"IP-Partner":null,"Affiliation":null,"Type":"CO-ED","Positive":73,"Tech":133.0,"Stream":"O-levels","Affiliated":null,"Area":"JURONG WEST","Express":223.0,"Acad":176.0,"Negative":27,"School":"JURONG SECONDARY SCHOOL"},"type":"Feature","geometry":{"type":"Point","coordinates":[103.724282,1.330365]}},{"properties":{"IP-Partner":null,"Affiliation":null,"Type":"CO-ED","Positive":53,"Tech":123.0,"Stream":"O-levels","Affiliated":null,"Area":"BUKIT BATOK","Express":222.0,"Acad":173.0,"Negative":47,"School":"BUKIT BATOK SECONDARY SCHOOL"},"type":"Feature","geometry":{"type":"Point","coordinates":[103.740867,1.348506]}},{"properties":{"IP-Partner":null,"Affiliation":null,"Type":"CO-ED","Positive":47,"Tech":140.0,"Stream":"O-levels","Affiliated":null,"Area":"JURONG WEST","Express":221.0,"Acad":176.0,"Negative":53,"School":"HUA YI SECONDARY SCHOOL"},"type":"Feature","geometry":{"type":"Point","coordinates":[103.72158,1.351473]}},{"properties":{"IP-Partner":null,"Affiliation":188.0,"Type":"GIRLS","Positive":72,"Tech":115.0,"Stream":"O-levels","Affiliated":"CATHOLIC JC","Area":"BEDOK","Express":221.0,"Acad":170.0,"Negative":28,"School":"ST. ANTHONY'S CANOSSIAN SECONDARY SCHOOL "},"type":"Feature","geometry":{"type":"Point","coordinates":[103.9413752,1.3348576]}},{"properties":{"IP-Partner":null,"Affiliation":null,"Type":"CO-ED","Positive":54,"Tech":123.0,"Stream":"O-levels","Affiliated":null,"Area":"PASIR RIS","Express":220.0,"Acad":174.0,"Negative":46,"School":"HAI SING CATHOLIC SCHOOL"},"type":"Feature","geometry":{"type":"Point","coordinates":[103.9548524,1.3744495]}},{"properties":{"IP-Partner":null,"Affiliation":null,"Type":"CO-ED","Positive":54,"Tech":116.0,"Stream":"O-levels","Affiliated":null,"Area":"ANG MO KIO","Express":220.0,"Acad":175.0,"Negative":46,"School":"MAYFLOWER SECONDARY SCHOOL"},"type":"Feature","geometry":{"type":"Point","coordinates":[103.8352119,1.3686252]}},{"properties":{"IP-Partner":null,"Affiliation":null,"Type":"CO-ED","Positive":45,"Tech":137.0,"Stream":"O-levels","Affiliated":null,"Area":"BUKIT PANJANG","Express":219.0,"Acad":178.0,"Negative":55,"School":"WEST SPRING SECONDARY SCHOOL"},"type":"Feature","geometry":{"type":"Point","coordinates":[103.7599781,1.3879387]}},{"properties":{"IP-Partner":null,"Affiliation":null,"Type":"CO-ED","Positive":51,"Tech":139.0,"Stream":"O-levels","Affiliated":null,"Area":"YISHUN","Express":218.0,"Acad":173.0,"Negative":49,"School":"AHMAD IBRAHIM SECONDARY SCHOOL"},"type":"Feature","geometry":{"type":"Point","coordinates":[103.8299037,1.436316]}},{"properties":{"IP-Partner":null,"Affiliation":null,"Type":"CO-ED","Positive":41,"Tech":142.0,"Stream":"O-levels","Affiliated":null,"Area":"SENG KANG","Express":217.0,"Acad":177.0,"Negative":59,"School":"PEI HWA SECONDARY SCHOOL"},"type":"Feature","geometry":{"type":"Point","coordinates":[103.8784603,1.3906452]}},{"properties":{"IP-Partner":null,"Affiliation":null,"Type":"CO-ED","Positive":43,"Tech":108.0,"Stream":"O-levels","Affiliated":null,"Area":"TAMPINES","Express":216.0,"Acad":177.0,"Negative":57,"School":"PASIR RIS SECONDARY SCHOOL"},"type":"Feature","geometry":{"type":"Point","coordinates":[103.948533,1.354757]}},{"properties":{"IP-Partner":null,"Affiliation":null,"Type":"CO-ED","Positive":47,"Tech":128.0,"Stream":"O-levels","Affiliated":null,"Area":"PASIR RIS","Express":215.0,"Acad":174.0,"Negative":53,"School":"PASIR RIS CREST SECONDARY SCHOOL"},"type":"Feature","geometry":{"type":"Point","coordinates":[103.9594764,1.3728674]}},{"properties":{"IP-Partner":null,"Affiliation":null,"Type":"CO-ED","Positive":58,"Tech":134.0,"Stream":"O-levels","Affiliated":null,"Area":"CHOA CHU KANG","Express":215.0,"Acad":165.0,"Negative":42,"School":"UNITY SECONDARY SCHOOL"},"type":"Feature","geometry":{"type":"Point","coordinates":[103.7459328,1.3995027]}},{"properties":{"IP-Partner":null,"Affiliation":null,"Type":"CO-ED","Positive":43,"Tech":121.0,"Stream":"O-levels","Affiliated":null,"Area":"ANG MO KIO","Express":213.0,"Acad":165.0,"Negative":57,"School":"DEYI SECONDARY SCHOOL"},"type":"Feature","geometry":{"type":"Point","coordinates":[103.852332,1.366107]}},{"properties":{"IP-Partner":null,"Affiliation":null,"Type":"CO-ED","Positive":70,"Tech":124.0,"Stream":"O-levels","Affiliated":null,"Area":"BEDOK","Express":212.0,"Acad":168.0,"Negative":30,"School":"BEDOK VIEW SECONDARY SCHOOL"},"type":"Feature","geometry":{"type":"Point","coordinates":[103.9438629,1.3246274]}},{"properties":{"IP-Partner":null,"Affiliation":null,"Type":"CO-ED","Positive":55,"Tech":134.0,"Stream":"O-levels","Affiliated":null,"Area":"CHOA CHU KANG","Express":212.0,"Acad":171.0,"Negative":45,"School":"CHUA CHU KANG SECONDARY SCHOOL"},"type":"Feature","geometry":{"type":"Point","coordinates":[103.7515449,1.3834832]}},{"properties":{"IP-Partner":null,"Affiliation":null,"Type":"CO-ED","Positive":67,"Tech":125.0,"Stream":"O-levels","Affiliated":null,"Area":"QUEENSTOWN","Express":212.0,"Acad":171.0,"Negative":33,"School":"QUEENSWAY SECONDARY SCHOOL"},"type":"Feature","geometry":{"type":"Point","coordinates":[103.8020849,1.3004684]}},{"properties":{"IP-Partner":null,"Affiliation":null,"Type":"CO-ED","Positive":73,"Tech":130.0,"Stream":"O-levels","Affiliated":null,"Area":"WOODLANDS","Express":212.0,"Acad":168.0,"Negative":27,"School":"WOODLANDS RING SECONDARY SCHOOL"},"type":"Feature","geometry":{"type":"Point","coordinates":[103.800671,1.436147]}},{"properties":{"IP-Partner":null,"Affiliation":null,"Type":"CO-ED","Positive":47,"Tech":130.0,"Stream":"O-levels","Affiliated":null,"Area":"TOA PAYOH","Express":210.0,"Acad":160.0,"Negative":53,"School":"BEATTY SECONDARY SCHOOL"},"type":"Feature","geometry":{"type":"Point","coordinates":[103.851956,1.34154]}},{"properties":{"IP-Partner":null,"Affiliation":null,"Type":"CO-ED","Positive":73,"Tech":105.0,"Stream":"O-levels","Affiliated":null,"Area":"JURONG WEST","Express":210.0,"Acad":160.0,"Negative":27,"School":"YUAN CHING SECONDARY SCHOOL"},"type":"Feature","geometry":{"type":"Point","coordinates":[103.7204095,1.3420389]}},{"properties":{"IP-Partner":null,"Affiliation":null,"Type":"CO-ED","Positive":76,"Tech":120.0,"Stream":"O-levels","Affiliated":null,"Area":"BUKIT BATOK","Express":209.0,"Acad":165.0,"Negative":24,"School":"HILLGROVE SECONDARY SCHOOL"},"type":"Feature","geometry":{"type":"Point","coordinates":[103.7531743,1.3531321]}},{"properties":{"IP-Partner":null,"Affiliation":null,"Type":"CO-ED","Positive":78,"Tech":133.0,"Stream":"O-levels","Affiliated":null,"Area":"SENG KANG","Express":208.0,"Acad":172.0,"Negative":22,"School":"COMPASSVALE SECONDARY SCHOOL"},"type":"Feature","geometry":{"type":"Point","coordinates":[103.899711,1.396086]}},{"properties":{"IP-Partner":null,"Affiliation":null,"Type":"CO-ED","Positive":77,"Tech":null,"Stream":"O-levels","Affiliated":null,"Area":"BISHAN","Express":208.0,"Acad":153.0,"Negative":23,"School":"PEIRCE SECONDARY SCHOOL"},"type":"Feature","geometry":{"type":"Point","coordinates":[103.8298057,1.3662806]}},{"properties":{"IP-Partner":null,"Affiliation":null,"Type":"CO-ED","Positive":54,"Tech":132.0,"Stream":"O-levels","Affiliated":null,"Area":"BUKIT PANJANG","Express":208.0,"Acad":169.0,"Negative":46,"School":"ZHENGHUA SECONDARY SCHOOL"},"type":"Feature","geometry":{"type":"Point","coordinates":[103.8692504,1.3494016]}},{"properties":{"IP-Partner":null,"Affiliation":null,"Type":"CO-ED","Positive":49,"Tech":131.0,"Stream":"O-levels","Affiliated":null,"Area":"SENG KANG","Express":206.0,"Acad":171.0,"Negative":51,"School":"NORTH VISTA SECONDARY SCHOOL"},"type":"Feature","geometry":{"type":"Point","coordinates":[103.8990751,1.38121]}},{"properties":{"IP-Partner":null,"Affiliation":null,"Type":"CO-ED","Positive":51,"Tech":133.0,"Stream":"O-levels","Affiliated":null,"Area":"YISHUN","Express":206.0,"Acad":171.0,"Negative":49,"School":"ORCHID PARK SECONDARY SCHOOL"},"type":"Feature","geometry":{"type":"Point","coordinates":[103.8380899,1.4156038]}},{"properties":{"IP-Partner":null,"Affiliation":null,"Type":"CO-ED","Positive":44,"Tech":115.0,"Stream":"O-levels","Affiliated":null,"Area":"BEDOK","Express":205.0,"Acad":152.0,"Negative":56,"School":"BEDOK SOUTH SECONDARY SCHOOL"},"type":"Feature","geometry":{"type":"Point","coordinates":[103.950977,1.3248089]}},{"properties":{"IP-Partner":null,"Affiliation":null,"Type":"CO-ED","Positive":57,"Tech":null,"Stream":"O-levels","Affiliated":null,"Area":"BUKIT BATOK","Express":205.0,"Acad":156.0,"Negative":43,"School":"BUKIT VIEW SECONDARY SCHOOL"},"type":"Feature","geometry":{"type":"Point","coordinates":[103.752662,1.346088]}},{"properties":{"IP-Partner":null,"Affiliation":null,"Type":"CO-ED","Positive":51,"Tech":107.0,"Stream":"O-levels","Affiliated":null,"Area":"PASIR RIS","Express":204.0,"Acad":165.0,"Negative":49,"School":"MERIDIAN SECONDARY SCHOOL"},"type":"Feature","geometry":{"type":"Point","coordinates":[103.9492665,1.3675302]}},{"properties":{"IP-Partner":null,"Affiliation":null,"Type":"CO-ED","Positive":77,"Tech":115.0,"Stream":"O-levels","Affiliated":null,"Area":"JURONG WEST","Express":204.0,"Acad":158.0,"Negative":23,"School":"WESTWOOD SECONDARY SCHOOL"},"type":"Feature","geometry":{"type":"Point","coordinates":[103.7017949,1.3537784]}},{"properties":{"IP-Partner":null,"Affiliation":null,"Type":"CO-ED","Positive":61,"Tech":123.0,"Stream":"O-levels","Affiliated":null,"Area":"WOODLANDS","Express":204.0,"Acad":169.0,"Negative":39,"School":"WOODGROVE SECONDARY SCHOOL"},"type":"Feature","geometry":{"type":"Point","coordinates":[103.797442,1.429005]}},{"properties":{"IP-Partner":null,"Affiliation":null,"Type":"CO-ED","Positive":69,"Tech":104.0,"Stream":"O-levels","Affiliated":null,"Area":"CLEMENTI","Express":203.0,"Acad":161.0,"Negative":31,"School":"KENT RIDGE SECONDARY SCHOOL"},"type":"Feature","geometry":{"type":"Point","coordinates":[103.7649426,1.3013766]}},{"properties":{"IP-Partner":null,"Affiliation":188.0,"Type":"BOYS","Positive":73,"Tech":97.0,"Stream":"O-levels","Affiliated":null,"Area":"HOUGANG","Express":202.0,"Acad":162.0,"Negative":27,"School":"MONTFORT SECONDARY SCHOOL "},"type":"Feature","geometry":{"type":"Point","coordinates":[103.888829,1.374084]}},{"properties":{"IP-Partner":null,"Affiliation":null,"Type":"CO-ED","Positive":77,"Tech":136.0,"Stream":"O-levels","Affiliated":null,"Area":"PUNGGOL","Express":201.0,"Acad":169.0,"Negative":23,"School":"GREENDALE SECONDARY SCHOOL"},"type":"Feature","geometry":{"type":"Point","coordinates":[103.9117179,1.396986]}},{"properties":{"IP-Partner":null,"Affiliation":null,"Type":"CO-ED","Positive":73,"Tech":138.0,"Stream":"O-levels","Affiliated":null,"Area":"JURONG EAST","Express":201.0,"Acad":164.0,"Negative":27,"School":"JURONGVILLE SECONDARY SCHOOL"},"type":"Feature","geometry":{"type":"Point","coordinates":[103.7290977,1.3516592]}},{"properties":{"IP-Partner":null,"Affiliation":null,"Type":"CO-ED","Positive":70,"Tech":118.0,"Stream":"O-levels","Affiliated":null,"Area":"WOODLANDS","Express":200.0,"Acad":165.0,"Negative":30,"School":"CHRIST CHURCH SECONDARY SCHOOL"},"type":"Feature","geometry":{"type":"Point","coordinates":[103.793419,1.426395]}},{"properties":{"IP-Partner":null,"Affiliation":null,"Type":"CO-ED","Positive":55,"Tech":132.0,"Stream":"O-levels","Affiliated":null,"Area":"YISHUN","Express":200.0,"Acad":162.0,"Negative":45,"School":"YISHUN SECONDARY SCHOOL"},"type":"Feature","geometry":{"type":"Point","coordinates":[103.828833,1.428129]}},{"properties":{"IP-Partner":null,"Affiliation":null,"Type":"CO-ED","Positive":70,"Tech":null,"Stream":"O-levels","Affiliated":null,"Area":"QUEENSTOWN","Express":199.0,"Acad":154.0,"Negative":30,"School":"NEW TOWN SECONDARY SCHOOL"},"type":"Feature","geometry":{"type":"Point","coordinates":[103.7731811,1.3100381]}},{"properties":{"IP-Partner":null,"Affiliation":null,"Type":"CO-ED","Positive":61,"Tech":129.0,"Stream":"O-levels","Affiliated":null,"Area":"TAMPINES","Express":199.0,"Acad":167.0,"Negative":39,"School":"TAMPINES SECONDARY SCHOOL"},"type":"Feature","geometry":{"type":"Point","coordinates":[103.9445009,1.3493258]}},{"properties":{"IP-Partner":null,"Affiliation":null,"Type":"CO-ED","Positive":55,"Tech":100.0,"Stream":"O-levels","Affiliated":null,"Area":"BUKIT PANJANG","Express":197.0,"Acad":162.0,"Negative":45,"School":"GREENRIDGE SECONDARY SCHOOL"},"type":"Feature","geometry":{"type":"Point","coordinates":[103.773836,1.38206]}},{"properties":{"IP-Partner":null,"Affiliation":null,"Type":"CO-ED","Positive":53,"Tech":136.0,"Stream":"O-levels","Affiliated":null,"Area":"JURONG WEST","Express":195.0,"Acad":161.0,"Negative":47,"School":"JURONG WEST SECONDARY SCHOOL"},"type":"Feature","geometry":{"type":"Point","coordinates":[103.7016028,1.3359257]}},{"properties":{"IP-Partner":null,"Affiliation":null,"Type":"CO-ED","Positive":65,"Tech":137.0,"Stream":"O-levels","Affiliated":null,"Area":"SEMBAWANG","Express":194.0,"Acad":163.0,"Negative":35,"School":"CANBERRA SECONDARY SCHOOL"},"type":"Feature","geometry":{"type":"Point","coordinates":[103.8144127,1.4536632]}},{"properties":{"IP-Partner":null,"Affiliation":null,"Type":"CO-ED","Positive":44,"Tech":115.0,"Stream":"O-levels","Affiliated":null,"Area":"JURONG WEST","Express":194.0,"Acad":161.0,"Negative":56,"School":"JUYING SECONDARY SCHOOL"},"type":"Feature","geometry":{"type":"Point","coordinates":[103.6872268,1.3395341]}},{"properties":{"IP-Partner":null,"Affiliation":null,"Type":"CO-ED","Positive":78,"Tech":137.0,"Stream":"O-levels","Affiliated":null,"Area":"SENG KANG","Express":194.0,"Acad":167.0,"Negative":22,"School":"SENG KANG SECONDARY SCHOOL"},"type":"Feature","geometry":{"type":"Point","coordinates":[103.8983495,1.3862154]}},{"properties":{"IP-Partner":null,"Affiliation":null,"Type":"CO-ED","Positive":57,"Tech":127.0,"Stream":"O-levels","Affiliated":null,"Area":"WOODLANDS","Express":193.0,"Acad":161.0,"Negative":43,"School":"ADMIRALTY SECONDARY SCHOOL"},"type":"Feature","geometry":{"type":"Point","coordinates":[103.8026082,1.4462673]}},{"properties":{"IP-Partner":null,"Affiliation":null,"Type":"CO-ED","Positive":41,"Tech":134.0,"Stream":"O-levels","Affiliated":null,"Area":"YISHUN","Express":193.0,"Acad":163.0,"Negative":59,"School":"NAVAL BASE SECONDARY SCHOOL"},"type":"Feature","geometry":{"type":"Point","coordinates":[103.8306832,1.4189428]}},{"properties":{"IP-Partner":null,"Affiliation":null,"Type":"CO-ED","Positive":74,"Tech":108.0,"Stream":"O-levels","Affiliated":null,"Area":"CHOA CHU KANG","Express":192.0,"Acad":154.0,"Negative":26,"School":"TECK WHYE SECONDARY SCHOOL"},"type":"Feature","geometry":{"type":"Point","coordinates":[103.7551658,1.3831686]}},{"properties":{"IP-Partner":null,"Affiliation":null,"Type":"CO-ED","Positive":52,"Tech":null,"Stream":"O-levels","Affiliated":null,"Area":"CHOA CHU KANG","Express":191.0,"Acad":160.0,"Negative":48,"School":"REGENT SECONDARY SCHOOL"},"type":"Feature","geometry":{"type":"Point","coordinates":[103.7510018,1.3936053]}},{"properties":{"IP-Partner":null,"Affiliation":null,"Type":"CO-ED","Positive":74,"Tech":125.0,"Stream":"O-levels","Affiliated":null,"Area":"HOUGANG","Express":190.0,"Acad":164.0,"Negative":26,"School":"HOUGANG SECONDARY SCHOOL"},"type":"Feature","geometry":{"type":"Point","coordinates":[103.8821388,1.3775793]}},{"properties":{"IP-Partner":null,"Affiliation":null,"Type":"CO-ED","Positive":41,"Tech":111.0,"Stream":"O-levels","Affiliated":null,"Area":"BUKIT MERAH","Express":189.0,"Acad":152.0,"Negative":59,"School":"BUKIT MERAH SECONDARY SCHOOL"},"type":"Feature","geometry":{"type":"Point","coordinates":[103.813113,1.2858957]}},{"properties":{"IP-Partner":null,"Affiliation":null,"Type":"CO-ED","Positive":69,"Tech":109.0,"Stream":"O-levels","Affiliated":null,"Area":"BISHAN","Express":189.0,"Acad":153.0,"Negative":31,"School":"GUANGYANG SECONDARY SCHOOL"},"type":"Feature","geometry":{"type":"Point","coordinates":[103.850566,1.344693]}},{"properties":{"IP-Partner":null,"Affiliation":null,"Type":"CO-ED","Positive":52,"Tech":104.0,"Stream":"O-levels","Affiliated":null,"Area":"CENTRAL","Express":189.0,"Acad":152.0,"Negative":48,"School":"OUTRAM SECONDARY SCHOOL"},"type":"Feature","geometry":{"type":"Point","coordinates":[103.837091,1.286507]}},{"properties":{"IP-Partner":null,"Affiliation":null,"Type":"CO-ED","Positive":46,"Tech":123.0,"Stream":"O-levels","Affiliated":null,"Area":"SERANGOON","Express":189.0,"Acad":158.0,"Negative":54,"School":"SERANGOON GARDEN SECONDARY SCHOOL"},"type":"Feature","geometry":{"type":"Point","coordinates":[103.8689858,1.3697258]}},{"properties":{"IP-Partner":null,"Affiliation":null,"Type":"CO-ED","Positive":62,"Tech":107.0,"Stream":"O-levels","Affiliated":null,"Area":"TAMPINES","Express":189.0,"Acad":154.0,"Negative":38,"School":"SPRINGFIELD SECONDARY SCHOOL"},"type":"Feature","geometry":{"type":"Point","coordinates":[103.9300788,1.3498342]}},{"properties":{"IP-Partner":null,"Affiliation":null,"Type":"CO-ED","Positive":54,"Tech":104.0,"Stream":"O-levels","Affiliated":"CATHOLIC JC","Area":"BUKIT PANJANG","Express":188.0,"Acad":152.0,"Negative":46,"School":"ASSUMPTION ENGLISH SCHOOL"},"type":"Feature","geometry":{"type":"Point","coordinates":[103.7659784,1.3681882]}},{"properties":{"IP-Partner":null,"Affiliation":null,"Type":"CO-ED","Positive":45,"Tech":96.0,"Stream":"O-levels","Affiliated":null,"Area":"TOA PAYOH","Express":188.0,"Acad":152.0,"Negative":55,"School":"BARTLEY SECONDARY SCHOOL"},"type":"Feature","geometry":{"type":"Point","coordinates":[103.882831,1.340275]}},{"properties":{"IP-Partner":null,"Affiliation":null,"Type":"CO-ED","Positive":73,"Tech":125.0,"Stream":"O-levels","Affiliated":null,"Area":"BEDOK","Express":188.0,"Acad":159.0,"Negative":27,"School":"BEDOK GREEN SECONDARY SCHOOL"},"type":"Feature","geometry":{"type":"Point","coordinates":[103.935336,1.3341416]}},{"properties":{"IP-Partner":null,"Affiliation":null,"Type":"CO-ED","Positive":44,"Tech":133.0,"Stream":"O-levels","Affiliated":null,"Area":"KALLANG","Express":188.0,"Acad":155.0,"Negative":56,"School":"BENDEMEER SECONDARY SCHOOL"},"type":"Feature","geometry":{"type":"Point","coordinates":[103.8606641,1.3246123]}},{"properties":{"IP-Partner":null,"Affiliation":null,"Type":"CO-ED","Positive":70,"Tech":112.0,"Stream":"O-levels","Affiliated":null,"Area":"JURONG WEST","Express":188.0,"Acad":152.0,"Negative":30,"School":"BOON LAY SECONDARY SCHOOL"},"type":"Feature","geometry":{"type":"Point","coordinates":[103.701945,1.342172]}},{"properties":{"IP-Partner":null,"Affiliation":null,"Type":"CO-ED","Positive":50,"Tech":93.0,"Stream":"O-levels","Affiliated":null,"Area":"GEYLANG","Express":188.0,"Acad":153.0,"Negative":50,"School":"BROADRICK SECONDARY SCHOOL"},"type":"Feature","geometry":{"type":"Point","coordinates":[103.8872129,1.3072755]}},{"properties":{"IP-Partner":null,"Affiliation":null,"Type":"CO-ED","Positive":57,"Tech":null,"Stream":"O-levels","Affiliated":null,"Area":"TAMPINES","Express":188.0,"Acad":152.0,"Negative":43,"School":"CHANGKAT CHANGI SECONDARY SCHOOL"},"type":"Feature","geometry":{"type":"Point","coordinates":[103.9526953,1.3403707]}},{"properties":{"IP-Partner":null,"Affiliation":null,"Type":"CO-ED","Positive":57,"Tech":123.0,"Stream":"O-levels","Affiliated":null,"Area":"BEDOK","Express":188.0,"Acad":154.0,"Negative":43,"School":"DAMAI SECONDARY SCHOOL"},"type":"Feature","geometry":{"type":"Point","coordinates":[103.9269971,1.3371168]}},{"properties":{"IP-Partner":null,"Affiliation":null,"Type":"CO-ED","Positive":68,"Tech":106.0,"Stream":"O-levels","Affiliated":null,"Area":"BUKIT BATOK","Express":188.0,"Acad":152.0,"Negative":32,"School":"DUNEARN SECONDARY SCHOOL"},"type":"Feature","geometry":{"type":"Point","coordinates":[103.7107119,1.3413759]}},{"properties":{"IP-Partner":null,"Affiliation":null,"Type":"CO-ED","Positive":58,"Tech":94.0,"Stream":"O-levels","Affiliated":null,"Area":"TAMPINES","Express":188.0,"Acad":161.0,"Negative":42,"School":"EAST SPRING SECONDARY SCHOOL"},"type":"Feature","geometry":{"type":"Point","coordinates":[103.9607517,1.3568208]}},{"properties":{"IP-Partner":null,"Affiliation":null,"Type":"CO-ED","Positive":62,"Tech":null,"Stream":"O-levels","Affiliated":null,"Area":"TAMPINES","Express":188.0,"Acad":152.0,"Negative":38,"School":"EAST VIEW SECONDARY SCHOOL"},"type":"Feature","geometry":{"type":"Point","coordinates":[103.9493416,1.35813]}},{"properties":{"IP-Partner":null,"Affiliation":null,"Type":"CO-ED","Positive":51,"Tech":96.0,"Stream":"O-levels","Affiliated":null,"Area":"BUKIT PANJANG","Express":188.0,"Acad":152.0,"Negative":49,"School":"FAJAR SECONDARY SCHOOL"},"type":"Feature","geometry":{"type":"Point","coordinates":[103.7701935,1.3691491]}},{"properties":{"IP-Partner":null,"Affiliation":null,"Type":"CO-ED","Positive":54,"Tech":117.0,"Stream":"O-levels","Affiliated":null,"Area":"WOODLANDS","Express":188.0,"Acad":152.0,"Negative":46,"School":"FUCHUN SECONDARY SCHOOL"},"type":"Feature","geometry":{"type":"Point","coordinates":[103.777326,1.430948]}},{"properties":{"IP-Partner":null,"Affiliation":null,"Type":"CO-ED","Positive":59,"Tech":124.0,"Stream":"O-levels","Affiliated":null,"Area":"JURONG WEST","Express":188.0,"Acad":153.0,"Negative":41,"School":"HONG KAH SECONDARY SCHOOL"},"type":"Feature","geometry":{"type":"Point","coordinates":[103.7271021,1.3521827]}},{"properties":{"IP-Partner":null,"Affiliation":null,"Type":"CO-ED","Positive":43,"Tech":109.0,"Stream":"O-levels","Affiliated":null,"Area":"TAMPINES","Express":188.0,"Acad":164.0,"Negative":57,"School":"JUNYUAN SECONDARY SCHOOL"},"type":"Feature","geometry":{"type":"Point","coordinates":[103.9335232,1.3533278]}},{"properties":{"IP-Partner":null,"Affiliation":null,"Type":"CO-ED","Positive":62,"Tech":104.0,"Stream":"O-levels","Affiliated":null,"Area":"PASIR RIS","Express":188.0,"Acad":153.0,"Negative":38,"School":"LOYANG SECONDARY SCHOOL"},"type":"Feature","geometry":{"type":"Point","coordinates":[103.957395,1.3664613]}},{"properties":{"IP-Partner":null,"Affiliation":188.0,"Type":"CO-ED","Positive":45,"Tech":117.0,"Stream":"O-levels","Affiliated":null,"Area":"GEYLANG","Express":188.0,"Acad":156.0,"Negative":55,"School":"MANJUSRI SECONDARY SCHOOL "},"type":"Feature","geometry":{"type":"Point","coordinates":[103.9013422,1.3274138]}},{"properties":{"IP-Partner":null,"Affiliation":null,"Type":"CO-ED","Positive":78,"Tech":106.0,"Stream":"O-levels","Affiliated":null,"Area":"WOODLANDS","Express":188.0,"Acad":152.0,"Negative":22,"School":"MARSILING SECONDARY SCHOOL"},"type":"Feature","geometry":{"type":"Point","coordinates":[103.7763391,1.4386007]}},{"properties":{"IP-Partner":null,"Affiliation":null,"Type":"CO-ED","Positive":69,"Tech":124.0,"Stream":"O-levels","Affiliated":null,"Area":"YISHUN","Express":188.0,"Acad":152.0,"Negative":31,"School":"NORTHBROOKS SECONDARY SCHOOL"},"type":"Feature","geometry":{"type":"Point","coordinates":[103.8451553,1.4212061]}},{"properties":{"IP-Partner":null,"Affiliation":null,"Type":"CO-ED","Positive":71,"Tech":122.0,"Stream":"O-levels","Affiliated":null,"Area":"YISHUN","Express":188.0,"Acad":152.0,"Negative":29,"School":"NORTHLAND SECONDARY SCHOOL"},"type":"Feature","geometry":{"type":"Point","coordinates":[103.8401937,1.4358326]}},{"properties":{"IP-Partner":null,"Affiliation":null,"Type":"CO-ED","Positive":46,"Tech":null,"Stream":"O-levels","Affiliated":null,"Area":"SERANGOON","Express":188.0,"Acad":152.0,"Negative":54,"School":"PEICAI SECONDARY SCHOOL"},"type":"Feature","geometry":{"type":"Point","coordinates":[103.8704861,1.3593733]}},{"properties":{"IP-Partner":null,"Affiliation":null,"Type":"CO-ED","Positive":44,"Tech":105.0,"Stream":"O-levels","Affiliated":null,"Area":"BEDOK","Express":188.0,"Acad":153.0,"Negative":56,"School":"PING YI SECONDARY SCHOOL"},"type":"Feature","geometry":{"type":"Point","coordinates":[103.920663,1.326674]}},{"properties":{"IP-Partner":null,"Affiliation":null,"Type":"CO-ED","Positive":65,"Tech":131.0,"Stream":"O-levels","Affiliated":null,"Area":"PUNGGOL","Express":188.0,"Acad":166.0,"Negative":35,"School":"PUNGGOL SECONDARY SCHOOL"},"type":"Feature","geometry":{"type":"Point","coordinates":[103.9117179,1.396986]}},{"properties":{"IP-Partner":null,"Affiliation":null,"Type":"CO-ED","Positive":51,"Tech":123.0,"Stream":"O-levels","Affiliated":null,"Area":"QUEENSTOWN","Express":188.0,"Acad":158.0,"Negative":49,"School":"QUEENSTOWN SECONDARY SCHOOL"},"type":"Feature","geometry":{"type":"Point","coordinates":[103.8131968,1.2937571]}},{"properties":{"IP-Partner":null,"Affiliation":null,"Type":"CO-ED","Positive":61,"Tech":120.0,"Stream":"O-levels","Affiliated":null,"Area":"SEMBAWANG","Express":188.0,"Acad":154.0,"Negative":39,"School":"SEMBAWANG SECONDARY SCHOOL"},"type":"Feature","geometry":{"type":"Point","coordinates":[103.8169015,1.4455764]}},{"properties":{"IP-Partner":null,"Affiliation":null,"Type":"CO-ED","Positive":67,"Tech":121.0,"Stream":"O-levels","Affiliated":null,"Area":"HOUGANG","Express":188.0,"Acad":156.0,"Negative":33,"School":"SERANGOON SECONDARY SCHOOL"},"type":"Feature","geometry":{"type":"Point","coordinates":[103.9022635,1.3748927]}},{"properties":{"IP-Partner":null,"Affiliation":null,"Type":"CO-ED","Positive":63,"Tech":null,"Stream":"O-levels","Affiliated":null,"Area":"JURONG EAST","Express":188.0,"Acad":152.0,"Negative":37,"School":"SHUQUN SECONDARY SCHOOL"},"type":"Feature","geometry":{"type":"Point","coordinates":[103.739469,1.340338]}},{"properties":{"IP-Partner":null,"Affiliation":null,"Type":"CO-ED","Positive":50,"Tech":110.0,"Stream":"O-levels","Affiliated":null,"Area":"CLEMENTI","Express":188.0,"Acad":152.0,"Negative":50,"School":"TANGLIN SECONDARY SCHOOL"},"type":"Feature","geometry":{"type":"Point","coordinates":[103.7581468,1.3097054]}},{"properties":{"IP-Partner":null,"Affiliation":null,"Type":"CO-ED","Positive":78,"Tech":null,"Stream":"O-levels","Affiliated":null,"Area":"BISHAN","Express":188.0,"Acad":152.0,"Negative":22,"School":"WHITLEY SECONDARY SCHOOL"},"type":"Feature","geometry":{"type":"Point","coordinates":[103.8429934,1.3555371]}},{"properties":{"IP-Partner":null,"Affiliation":null,"Type":"CO-ED","Positive":73,"Tech":130.0,"Stream":"O-levels","Affiliated":null,"Area":"WOODLANDS","Express":188.0,"Acad":161.0,"Negative":27,"School":"WOODLANDS SECONDARY SCHOOL"},"type":"Feature","geometry":{"type":"Point","coordinates":[103.774358,1.4399817]}},{"properties":{"IP-Partner":null,"Affiliation":null,"Type":"CO-ED","Positive":53,"Tech":87.0,"Stream":"O-levels","Affiliated":null,"Area":"ANG MO KIO","Express":188.0,"Acad":159.0,"Negative":47,"School":"YIO CHU KANG SECONDARY SCHOOL"},"type":"Feature","geometry":{"type":"Point","coordinates":[103.841765,1.3781326]}},{"properties":{"IP-Partner":null,"Affiliation":null,"Type":"CO-ED","Positive":68,"Tech":105.0,"Stream":"O-levels","Affiliated":null,"Area":"JURONG WEST","Express":188.0,"Acad":155.0,"Negative":32,"School":"YUHUA SECONDARY SCHOOL"},"type":"Feature","geometry":{"type":"Point","coordinates":[103.722396,1.3472609]}},{"properties":{"IP-Partner":null,"Affiliation":null,"Type":"CO-ED","Positive":63,"Tech":114.0,"Stream":"O-levels","Affiliated":null,"Area":"BUKIT BATOK","Express":188.0,"Acad":152.0,"Negative":37,"School":"YUSOF ISHAK SECONDARY SCHOOL"},"type":"Feature","geometry":{"type":"Point","coordinates":[103.760309,1.342423]}},{"properties":{"IP-Partner":null,"Affiliation":null,"Type":"CO-ED","Positive":52,"Tech":103.0,"Stream":"O-levels","Affiliated":null,"Area":"HOUGANG","Express":188.0,"Acad":154.0,"Negative":48,"School":"YUYING SECONDARY SCHOOL"},"type":"Feature","geometry":{"type":"Point","coordinates":[103.890092,1.356754]}},{"properties":{"IP-Partner":null,"Affiliation":191.0,"Type":"BOYS","Positive":63,"Tech":109.0,"Stream":"O-levels","Affiliated":"CATHOLIC JC","Area":"BEDOK","Express":null,"Acad":182.0,"Negative":37,"School":"ST. PATRICK'S SCHOOL "},"type":"Feature","geometry":{"type":"Point","coordinates":[103.916644,1.3092299]}}]}